[{"Building number":"3","Price list":[{"Adults price":"100","Seniors price":"80","kids price":"60"}],"averageRating":[3.24,4.56,2.13],"description":"really big wall","Street":"olivia street","GPS coordinates":[{"Latitude":45.5555,"Longitude":34.3567}],"Opening hours: ":[{"Monday":"2-16","Thursday":"2-16","Friday":"2-16","Sunday":"-","Wednesday":"2-16","Tuesday":"2-16","Saturday":"5-16"}],"ID":0,"City":"Gdansk","type":"wall","Apartment":"5","District":"olivia","Name":"big wall"},{"Building number":"3","Price list":[{"Adults price":"200","Seniors price":"150","kids price":"100"}],"averageRating":[3.24,4.56,2.13],"description":"reaaly nice museum","Street":"monciak","GPS coordinates":[{"Latitude":33.445,"Longitude":2323.555}],"Opening hours: ":[{"Monday":"4-16","Thursday":"4-16","Friday":"4-16","Sunday":"0-25","Wednesday":"4-16","Tuesday":"4-16","Saturday":"0-16"}],"ID":1,"City":"Sopot","type":"muzeum","Apartment":"-","District":"big district","Name":"Colloseum"},{"Building number":"23","description":"Very nice castle","GPS coordinates":[{"Latitude":44.55,"Longitude":23.33}],"Opening hours: ":[{"Monday":"0-9","Thursday":"0-9","Friday":"0-9","Sunday":"5-9","Wednesday":"0-9","Tuesday":"0-9","Saturday":"5-9"}],"City":"Malaga","type":"castle","Apartment":"12","Name":"Alcazaba","Price list":[{"Adults price":"200","Seniors price":"120","kids price":"60"}],"averageRating":[3.24,4.56,2.13],"Street":"naranja","ID":2,"District":"cuidad"}]