[{"buildingNumber":23,"buildingLetter":"","description":"Very nice castle","gpsCoordinates":[{"LATITUDE":36.721333,"LONGITUDE":-4.415899}],"openingHours":[{"MONDAY":"09:00-22:00","THURSDAY":"09:00-22:00","FRIDAY":"09:00-22:00","SUNDAY":"09:00-22:00","WEDNESDAY":"09:00-22:00","TUESDAY":"09:00-22:00","SATURDAY":"09:00-22:00"}],"city":"Malaga","type":"CASTLE","apartmentNumber":12,"name":"Alcazaba","prices":[{"NORMAL":200.00,"REDUCED_FOR_PENSIONERS":120.00,"REDUCED_FOR_CHILDREN":60.00}],"averageRating":[{"user1":2,"user2":4,"user3":5}],"street":"naranja","id":10,"District":"cuidad"},{"buildingNumber":3,"buildingLetter":"","description":"really big wall","gpsCoordinates":[{"LATITUDE":40.434899,"LONGITUDE":116.570828}],"openingHours":[{"MONDAY":"09:00-22:00","THURSDAY":"09:00-22:00","FRIDAY":"09:00-22:00","SUNDAY":"Zamknięte","WEDNESDAY":"09:00-22:00","TUESDAY":"09:00-22:00","SATURDAY":"09:00-22:00"}],"city":"Huairou","type":"MONUMENT","apartmentNumber":5,"name":"Big wall","prices":[{"NORMAL":100.00,"REDUCED_FOR_PENSIONERS":80.00,"REDUCED_FOR_CHILDREN":60.00}],"averageRating":[{"user1":3,"user2":4,"user3":2,"user4":5}],"street":"","id":1,"District":"Chiny"},{"buildingNumber":3,"buildingLetter":"","description":"reaaly nice museum","gpsCoordinates":[{"LATITUDE":41.890394,"LONGITUDE":12.492252}],"openingHours":[{"MONDAY":"09:00-22:00","THURSDAY":"09:00-22:00","FRIDAY":"09:00-22:00","SUNDAY":"09:00-22:00","WEDNESDAY":"09:00-22:00","TUESDAY":"09:00-22:00","SATURDAY":"09:00-22:00"}],"city":"Rzym","type":"MUSEUM","apartmentNumber":0,"name":"Colloseum","prices":[{"NORMAL":200.00,"REDUCED_FOR_PENSIONERS":150.00,"REDUCED_FOR_CHILDREN":100.00}],"averageRating":[{"user1":3,"user2":4,"user3":2}],"street":"Piazza del Colosseo","id":2,"District":""},{"buildingNumber":30,"buildingLetter":"A","description":"Bar u Szwagra","gpsCoordinates":[{"LATITUDE":54.41098,"LONGITUDE":18.572819}],"openingHours":[{"MONDAY":"13:00-22:00","THURSDAY":"13:00-22:00","FRIDAY":"13:00-22:00","SUNDAY":"13:00-22:00","WEDNESDAY":"13:00-22:00","TUESDAY":"13:00-22:00","SATURDAY":"13:00-22:00"}],"city":"Gdańsk","type":"WRONG_TYPE","apartmentNumber":0,"name":"Bar u Szwagra","prices":[{"NORMAL":10.00,"REDUCED_FOR_PENSIONERS":10.00,"REDUCED_FOR_CHILDREN":10.00}],"averageRating":[{"user1":5,"user2":4,"user3":5,"user4":1.0}],"street":"Leona Droszyńskiego","id":3,"District":"Oliwa"},{"buildingNumber":1,"buildingLetter":"","description":"Bardzo piękny kościół","gpsCoordinates":[{"LATITUDE":54.349979,"LONGITUDE":18.653253}],"openingHours":[{"MONDAY":"09:00-22:00","THURSDAY":"09:00-22:00","FRIDAY":"09:00-22:00","SUNDAY":"09:00-22:00","WEDNESDAY":"09:00-22:00","TUESDAY":"09:00-22:00","SATURDAY":"09:00-22:00"}],"city":"Gdańsk","type":"CHURCH","apartmentNumber":1,"name":"Kościół Mariacki","prices":[{"NORMAL":300.00,"REDUCED_FOR_PENSIONERS":100.00,"REDUCED_FOR_CHILDREN":0.00}],"averageRating":[],"street":"Długa","id":4,"District":"Starówka"},{"buildingNumber":0,"buildingLetter":"","description":"Tutaj rozpoczęła się II WŚ.","gpsCoordinates":[{"LATITUDE":54.406874,"LONGITUDE":18.666946}],"openingHours":[{"MONDAY":"Cały czas","THURSDAY":"Cały czas","FRIDAY":"Cały czas","SUNDAY":"Cały czas","WEDNESDAY":"Cały czas","TUESDAY":"Cały czas","SATURDAY":"Cały czas"}],"city":"Gdańsk","type":"MONUMENT","apartmentNumber":0,"name":"Westerplatte","prices":[{"NORMAL":0.00,"REDUCED_FOR_PENSIONERS":0.00,"REDUCED_FOR_CHILDREN":0.00}],"averageRating":[],"street":"mjr Henryka Sucharskiego","id":5,"District":""},{"buildingNumber":1,"buildingLetter":"","description":"Muzeum II Wojny Światowej w Gdańsku.","gpsCoordinates":[{"LATITUDE":54.356084,"LONGITUDE":18.660544}],"openingHours":[{"MONDAY":"Zamknięte","THURSDAY":"10:00-20:00","FRIDAY":"10:00-20:00","SUNDAY":"10:00-20:00","WEDNESDAY":"10:00-20:00","TUESDAY":"10:00-19:00","SATURDAY":"10:00-20:00"}],"city":"Gdańsk","type":"MUSEUM","apartmentNumber":0,"name":"Muzeum II WŚ","prices":[{"NORMAL":23.00,"REDUCED_FOR_PENSIONERS":16.00,"REDUCED_FOR_CHILDREN":16.00}],"averageRating":[],"street":"Plac Władysława Bartoszewskiego","id":6,"District":"Stare Miasto"},{"buildingNumber":0,"buildingLetter":"","description":"Oto jest Park Oliwski.","gpsCoordinates":[{"LATITUDE":54.411141,"LONGITUDE":18.562041}],"openingHours":[{"MONDAY":"05:00-23:00","THURSDAY":"05:00-23:00","FRIDAY":"05:00-23:00","SUNDAY":"05:00-23:00","WEDNESDAY":"05:00-23:00","TUESDAY":"05:00-23:00","SATURDAY":"05:00-23:00"}],"city":"Gdańsk","type":"PARK","apartmentNumber":0,"name":"Park Oliwski","prices":[{"NORMAL":"0","REDUCED_FOR_PENSIONERS":0.00,"REDUCED_FOR_CHILDREN":0.00}],"averageRating":[],"street":"Opata Jacka Rybińskiego","id":7,"District":"Oliwa"},{"buildingNumber":1,"buildingLetter":"","description":"Piękny pomnik przedstawiający powstańców.","gpsCoordinates":[{"LATITUDE":33.4444,"LONGITUDE":44.1234}],"openingHours":[{"MONDAY":"Cały czas","THURSDAY":"Cały czas","FRIDAY":"Cały czas","SUNDAY":"Cały czas","WEDNESDAY":"Cały czas","TUESDAY":"Cały czas","SATURDAY":"Cały czas"}],"city":"Gdańsk","type":"MONUMENT","apartmentNumber":0,"name":"Pomnik Powstańców Warszawskich","prices":[{"NORMAL":"bezpłatny","REDUCED_FOR_PENSIONERS":"bezpłatny","REDUCED_FOR_CHILDREN":"bezpłatny"}],"averageRating":[],"street":"Podmiejska","id":8,"District":"Starówka"},{"buildingNumber":1,"buildingLetter":"","description":"Jakiś opis","gpsCoordinates":[{"LATITUDE":33.4444,"LONGITUDE":44.1234}],"openingHours":[{"MONDAY":"Cały czas","THURSDAY":"Cały czas","FRIDAY":"Cały czas","SUNDAY":"Cały czas","WEDNESDAY":"Cały czas","TUESDAY":"Cały czas","SATURDAY":"Cały czas"}],"city":"Gdańsk","type":"MONUMENT","apartmentNumber":0,"name":"Pomnik Powstańców Warszawskich","prices":[{"normal":0.00,"reduced_for_PENSIONERS":12.00,"reduced_for_children":0.00}],"ratings":[{"admin":4,"user":3}],"street":"Podmiejska","id":9,"District":"Starówka"}]